{
  "data": {
    "geo_info": {
      "type": "FeatureCollection",
      "features": [
        {
          "type": "Feature",
          "properties": {
            "id": 1
          },
          "geometry": {
            "type": "Point",
            "coordinates": [
              118.68289947509766,
              32.025105397785569
            ]
          }
        },
        {
          "type": "Feature",
          "properties": {
            "id": 2
          },
          "geometry": {
            "type": "Point",
            "coordinates": [
              118.74731540679932,
              32.051225605088877
            ]
          }
        },
        {
          "type": "Feature",
          "properties": {
            "id": 3
          },
          "geometry": {
            "type": "Point",
            "coordinates": [
              118.80233287811281,
              32.07235641737533
            ]
          }
        },
        {
          "type": "Feature",
          "properties": {
            "id": 4
          },
          "geometry": {
            "type": "Point",
            "coordinates": [
              118.76066207885741,
              32.037584365162697
            ]
          }
        },
        {
          "type": "Feature",
          "properties": {
            "id": 5
          },
          "geometry": {
            "type": "Point",
            "coordinates": [
              118.81801843643189,
              32.05458103852961
            ]
          }
        },
        {
          "type": "Feature",
          "properties": {
            "id": 6
          },
          "geometry": {
            "type": "Point",
            "coordinates": [
              118.78405094146729,
              32.010696078891978
            ]
          }
        },
        {
          "type": "Feature",
          "properties": {
            "id": 7
          },
          "geometry": {
            "type": "Point",
            "coordinates": [
              118.8233184814453,
              32.03564714426709
            ]
          }
        },
        {
          "type": "Feature",
          "properties": {
            "id": 8
          },
          "geometry": {
            "type": "Point",
            "coordinates": [
              118.93371820449829,
              32.107678700658407
            ]
          }
        }
      ]
    },
    "list": [
      {
        "id": "1",
        "name": "长江水污染排放投诉"
      },
      {
        "id": "2",
        "name": "秦淮河非法占用投诉"
      },
      {
        "id": "3",
        "name": "玄武湖非法排污投诉"
      },
      {
        "id": "4",
        "name": "莫愁湖污水排放投诉"
      },
      {
        "id": "5",
        "name": "琵琶湖非法占用投诉"
      },
      {
        "id": "6",
        "name": "外秦淮河水位上升投诉"
      },
      {
        "id": "7",
        "name": "月牙河水污染投诉"
      },
      {
        "id": "8",
        "name": "羊山湖水质下降投诉"
      }
    ],
    "msg": "ok",
    "code": 0
  }
}